{"type": "FeatureCollection", "name": "LOCATION", "features": [{"type": "Feature", "properties": {"LOCATION": "Blues", "cluster": 0, "size": 274196}, "geometry": {"type": "Point", "coordinates": [39.38355527565548, 1.0733903472406754]}}, {"type": "Feature", "properties": {"LOCATION": "Classical", "cluster": 0, "size": 274196}, "geometry": {"type": "Point", "coordinates": [-20.53747072256336, -45.27955920391144]}}, {"type": "Feature", "properties": {"LOCATION": "Country", "cluster": 0, "size": 274196}, "geometry": {"type": "Point", "coordinates": [49.22155712428884, -16.80333505738731]}}, {"type": "Feature", "properties": {"LOCATION": "Disco", "cluster": 0, "size": 274196}, "geometry": {"type": "Point", "coordinates": [-17.117484799311978, 45.15540684903705]}}, {"type": "Feature", "properties": {"LOCATION": "Dubstep", "cluster": 0, "size": 274196}, "geometry": {"type": "Point", "coordinates": [-43.58626817214061, 28.939965271974575]}}, {"type": "Feature", "properties": {"LOCATION": "Electronic", "cluster": 0, "size": 274196}, "geometry": {"type": "Point", "coordinates": [-39.08136097831244, 17.276657469848292]}}, {"type": "Feature", "properties": {"LOCATION": "Folk", "cluster": 0, "size": 274196}, "geometry": {"type": "Point", "coordinates": [27.81378566167613, -38.07653164850481]}}, {"type": "Feature", "properties": {"LOCATION": "HipHop", "cluster": 0, "size": 274196}, "geometry": {"type": "Point", "coordinates": [0.011702047131735113, 47.73912512652457]}}, {"type": "Feature", "properties": {"LOCATION": "Jazz", "cluster": 0, "size": 274196}, "geometry": {"type": "Point", "coordinates": [12.54253669731607, -3.593074482252456]}}, {"type": "Feature", "properties": {"LOCATION": "Metal", "cluster": 0, "size": 274196}, "geometry": {"type": "Point", "coordinates": [1.0679611195051226, 1.9602566903835856]}}, {"type": "Feature", "properties": {"LOCATION": "Noise", "cluster": 0, "size": 274196}, "geometry": {"type": "Point", "coordinates": [-53.68175966545783, -25.000596200629502]}}, {"type": "Feature", "properties": {"LOCATION": "Pop", "cluster": 0, "size": 274196}, "geometry": {"type": "Point", "coordinates": [-1.8314007217412673, 0.7229538265069553]}}, {"type": "Feature", "properties": {"LOCATION": "Reggae", "cluster": 0, "size": 274196}, "geometry": {"type": "Point", "coordinates": [-11.808784872512357, 18.47593190319275]}}, {"type": "Feature", "properties": {"LOCATION": "Reggaeton", "cluster": 0, "size": 274196}, "geometry": {"type": "Point", "coordinates": [-5.183245117750677, 43.473254276422765]}}, {"type": "Feature", "properties": {"LOCATION": "Rock", "cluster": 0, "size": 274196}, "geometry": {"type": "Point", "coordinates": [30.454496789622706, 21.965939480512894]}}, {"type": "Feature", "properties": {"LOCATION": "Soul", "cluster": 0, "size": 274196}, "geometry": {"type": "Point", "coordinates": [-11.42603640544806, 28.286015303948062]}}, {"type": "Feature", "properties": {"LOCATION": "World", "cluster": 0, "size": 274196}, "geometry": {"type": "Point", "coordinates": [-10.094895943734432, -7.412274913565784]}}]}