{"type": "FeatureCollection", "name": "LOCATION", "features": [{"type": "Feature", "properties": {"LOCATION": "Blues", "cluster": 0, "size": 274196}, "geometry": {"type": "Point", "coordinates": [-37.99290028311542, -29.454635412641984]}}, {"type": "Feature", "properties": {"LOCATION": "Classical", "cluster": 0, "size": 274196}, "geometry": {"type": "Point", "coordinates": [57.51439567521424, -7.137409534074376]}}, {"type": "Feature", "properties": {"LOCATION": "Country", "cluster": 0, "size": 274196}, "geometry": {"type": "Point", "coordinates": [-28.254038069166263, -39.27137514517187]}}, {"type": "Feature", "properties": {"LOCATION": "Disco", "cluster": 0, "size": 274196}, "geometry": {"type": "Point", "coordinates": [-18.514873094539087, 48.753757027531655]}}, {"type": "Feature", "properties": {"LOCATION": "HipHop", "cluster": 0, "size": 274196}, "geometry": {"type": "Point", "coordinates": [-10.28323651194527, 27.35134197420256]}}, {"type": "Feature", "properties": {"LOCATION": "Jazz", "cluster": 0, "size": 274196}, "geometry": {"type": "Point", "coordinates": [-0.585030621891383, -11.542563148067488]}}, {"type": "Feature", "properties": {"LOCATION": "Metal", "cluster": 0, "size": 274196}, "geometry": {"type": "Point", "coordinates": [3.9268438013009095, -10.345274876022144]}}, {"type": "Feature", "properties": {"LOCATION": "Pop", "cluster": 0, "size": 274196}, "geometry": {"type": "Point", "coordinates": [5.355030031196168, 20.42761793509831]}}, {"type": "Feature", "properties": {"LOCATION": "Reggae", "cluster": 0, "size": 274196}, "geometry": {"type": "Point", "coordinates": [-36.81315228369207, 17.142159382824698]}}, {"type": "Feature", "properties": {"LOCATION": "Rock", "cluster": 0, "size": 274196}, "geometry": {"type": "Point", "coordinates": [-26.379163229258445, -38.8914178800413]}}]}