{"type": "FeatureCollection", "name": "LOCATION", "features": [{"type": "Feature", "properties": {"LOCATION": "Classical", "cluster": 0, "size": 274196}, "geometry": {"type": "Point", "coordinates": [14.955664341918451, -1.8889322081227347]}}, {"type": "Feature", "properties": {"LOCATION": "Country", "cluster": 0, "size": 274196}, "geometry": {"type": "Point", "coordinates": [-9.046669414968308, 0.8062477627632364]}}, {"type": "Feature", "properties": {"LOCATION": "Hiphop", "cluster": 0, "size": 274196}, "geometry": {"type": "Point", "coordinates": [15.291749201294962, 0.25083990906474823]}}, {"type": "Feature", "properties": {"LOCATION": "Jazz", "cluster": 0, "size": 274196}, "geometry": {"type": "Point", "coordinates": [34.654095, -17.02355]}}, {"type": "Feature", "properties": {"LOCATION": "Metal", "cluster": 0, "size": 274196}, "geometry": {"type": "Point", "coordinates": [14.076947212252252, -4.733186748261261]}}, {"type": "Feature", "properties": {"LOCATION": "Pop", "cluster": 0, "size": 274196}, "geometry": {"type": "Point", "coordinates": [15.259865260000002, -9.30944846]}}, {"type": "Feature", "properties": {"LOCATION": "Rock", "cluster": 0, "size": 274196}, "geometry": {"type": "Point", "coordinates": [-9.366218316174496, -0.5946136512080537]}}]}