{"type": "FeatureCollection", "name": "LOCATION", "features": [{"type": "Feature", "properties": {"LOCATION": "Blues", "cluster": 0, "size": 274196}, "geometry": {"type": "Point", "coordinates": [7.267635115875969, -14.537511798914727]}}, {"type": "Feature", "properties": {"LOCATION": "Classical", "cluster": 0, "size": 274196}, "geometry": {"type": "Point", "coordinates": [20.17003518205467, -0.7982879568191757]}}, {"type": "Feature", "properties": {"LOCATION": "Country", "cluster": 0, "size": 274196}, "geometry": {"type": "Point", "coordinates": [3.188443615742574, -24.56233004]}}, {"type": "Feature", "properties": {"LOCATION": "Disco", "cluster": 0, "size": 274196}, "geometry": {"type": "Point", "coordinates": [-32.82730334654166, 19.981887504395832]}}, {"type": "Feature", "properties": {"LOCATION": "HipHop", "cluster": 0, "size": 274196}, "geometry": {"type": "Point", "coordinates": [-28.66126717272293, 15.67073881843949]}}, {"type": "Feature", "properties": {"LOCATION": "Jazz", "cluster": 0, "size": 274196}, "geometry": {"type": "Point", "coordinates": [5.540095595305085, -1.3699863307491527]}}, {"type": "Feature", "properties": {"LOCATION": "Metal", "cluster": 0, "size": 274196}, "geometry": {"type": "Point", "coordinates": [8.33645396661442, 11.610931230658307]}}, {"type": "Feature", "properties": {"LOCATION": "Pop", "cluster": 0, "size": 274196}, "geometry": {"type": "Point", "coordinates": [-25.629174443957595, 3.7849553655547705]}}, {"type": "Feature", "properties": {"LOCATION": "Reggae", "cluster": 0, "size": 274196}, "geometry": {"type": "Point", "coordinates": [-26.86297156024, 7.59162133016]}}, {"type": "Feature", "properties": {"LOCATION": "Rock", "cluster": 0, "size": 274196}, "geometry": {"type": "Point", "coordinates": [-7.783019015021739, 8.918446497608697]}}]}